«ÍïRMC,053152.000,A,4226.8556,N,07628.4690,W,1.98,356.50,091222,,,A*7F          
$GPRMC,053157.000,A,4226.8569,N,07628.4698,W,3.00,353.03,091222,,,A*7E       
$GPRMC,053203.000,A,4226.8618,N,07628.4701,W,3.11,2.47,091222,,,A*7F       
$GPRMC,053209.000,A,4226.8662,N,07628.4696,W,2.68,357.49,091222,,,A*75       
$GPRMC,053215.000,A,4226.8697,N,07628.4726,W,2.92,319.49,091222,,,A*77        
$GPRMC,053221.000,A,4226.8706,N,07628.4799,W,3.50,297.84,091222,,,A*74        
$GPRMC,053227.000,A,4226.8719,N,07628.4869,W,3.18,292.43,091222,,,A*7E        
$GPRMC,053233.000,A,4226.8710,N,07628.4943,W,3.12,276.87,091222,,,A*73        
$GPRMC,053239.000,A,4226.8707,N,07628.4987,W,1.92,281.28,091222,,,A*70        
$GPRMC,053245.000,A,4226.8727,N,07628.4982,W,0.00,337.83,091222,,,A*7B        
$GPRMC,053251.000,A,4226.8715,N,07628.5018,W,1.62,255.82,091222,,,A*75        
$GPRMC,053257.000,A,4226.8694,N,07628.5077,W,2.42,247.21,091222,,,A*79        
$GPRMC,053303.000,A,4226.8684,N,07628.5149,W,2.84,251.72,091222,,,A*7F        
$GPRMC,053309.000,A,4226.8684,N,07628.5216,W,2.80,255.16,091222,,,A*7E        
$GPRMC,053315.000,A,4226.8678,N,07628.5282,W,2.77,255.31,091222,,,A*70        
$GPRMC,053321.000,A,4226.8653,N,07628.5344,W,2.65,247.96,091222,,,A*78        
$GPRMC,053327.000,A,4226.8511,N,07628.5403,W,3.82,269.84,091222,,,A*78        
$GPRMC,053333.000,A,4226.8501,N,07628.5495,W,2.19,279.91,091222,,,A*75        
$GPRMC,053339.000,A,4226.8507,N,07628.5594,W,4.31,274.91,091222,,,A*78        
$GPRMC,053345.000,A,4226.8506,N,07628.5670,W,2.93,274.73,091222,,,A*79        
$GPRMC,053351.000,A,4226.8501,N,07628.5753,W,3.98,264.60,091222,,,A*72        
$GPRMC,053357.000,A,4226.8495,N,07628.5836,W,3.46,266.27,091222,,,A*76        
$GPRMC,053403.000,A,4226.8493,N,07628.5903,W,3.36,278.85,091222,,,A*71        
$GPRMC,053408.000,A,4226.8490,N,07628.5957,W,2.31,253.55,091222,,,A*7A        
$GPRMC,053414.000,A,4226.8480,N,07628.6021,W,3.28,257.05,091222,,,A*75        
$GPRMC,053420.000,A,4226.8479,N,07628.6091,W,2.82,258.34,091222,,,A*73        
$GPRMC,053425.000,A,4226.8475,N,07628.6179,W,5.07,271.27,091222,,,A*7E        
$GPRMC,053431.000,A,4226.8472,N,07628.6249,W,4.23,260.52,091222,,,A*79        
$GPRMC,053436.000,A,4226.8477,N,07628.6312,W,2.25,282.53,091222,,,A*79        
$GPRMC,053442.000,A,4226.8486,N,07628.6385,W,3.83,278.63,091222,,,A*71        
$GPRMC,053448.000,A,4226.8475,N,07628.6482,W,3.74,246.72,091222,,,A*72        
$GPRMC,053454.000,A,4226.8488,N,07628.6538,W,3.62,284.56,091222,,,A*72        
$GPRMC,053500.000,A,4226.8507,N,07628.6587,W,3.64,280.63,091222,,,A*74        
$GPRMC,053506.000,A,4226.8521,N,07628.6625,W,3.37,282.74,091222,,,A*7F        
$GPRMC,053512.000,A,4226.8533,N,07628.6692,W,3.09,277.71,091222,,,A*77        
$GPRMC,053518.000,A,4226.8527,N,07628.6767,W,3.88,266.14,091222,,,A*79        
$GPRMC,053524.000,A,4226.8520,N,07628.6840,W,3.97,266.70,091222,,,A*77        
$GPRMC,053530.000,A,4226.8535,N,07628.6909,W,3.31,287.35,091222,,,A*78        
$GPRMC,053536.000,A,4226.8553,N,07628.6975,W,3.34,287.69,091222,,,A*79        
$GPRMC,053542.000,A,4226.8549,N,07628.7053,W,3.81,260.31,091222,,,A*77        
$GPRMC,053548.000,A,4226.8537,N,07628.7109,W,1.77,247.67,091222,,,A*77        
$GPRMC,053554.000,A,4226.8539,N,07628.7209,W,3.71,268.79,091222,,,A*71        
$GPRMC,053600.000,A,4226.8544,N,07628.7279,W,3.22,272.27,091222,,,A*78        
$GPRMC,053606.000,A,4226.8547,N,07628.7343,W,2.96,277.77,091222,,,A*7B        
$GPRMC,053612.000,A,4226.8549,N,07628.7408,W,3.08,270.43,091222,,,A*7E        
$GPRMC,053618.000,A,4226.8542,N,07628.7484,W,3.19,261.89,091222,,,A*7D        
$GPRMC,053624.000,A,4226.8581,N,07628.7542,W,3.12,275.17,091222,,,A*7F        
$GPRMC,053630.000,A,4226.8606,N,07628.7609,W,2.69,266.80,091222,,,A*7B        
$GPRMC,053636.000,A,4226.8611,N,07628.7677,W,2.89,276.86,091222,,,A*7B        
$GPRMC,053642.000,A,4226.8591,N,07628.7765,W,2.79,255.89,091222,,,A*70        
$GPRMC,053648.000,A,4226.8569,N,07628.7841,W,3.36,261.20,091222,,,A*7A        
$GPRMC,053654.000,A,4226.8555,N,07628.7920,W,3.52,269.78,091222,,,A*79        
$GPRMC,053700.000,A,4226.8541,N,07628.7988,W,2.49,248.16,091222,,,A*7E        
$GPRMC,053706.000,A,4226.8507,N,07628.8055,W,3.69,235.68,091222,,,A*7C        
$GPRMC,053712.000,A,4226.8481,N,07628.8124,W,3.64,240.36,091222,,,A*75        
$GPRMC,053718.000,A,4226.8457,N,07628.8182,W,2.71,228.70,091222,,,A*71        
$GPRMC,053724.000,A,4226.8412,N,07628.8212,W,2.94,192.70,091222,,,A*7C        
$GPRMC,053730.000,A,4226.8347,N,07628.8207,W,4.12,166.67,091222,,,A*7F        
$GPRMC,053735.000,A,4226.8302,N,07628.8231,W,3.05,201.00,091222,,,A*7C        
$GPRMC,053740.000,A,4226.8256,N,07628.8248,W,3.01,187.06,091222,,,A*7F        
$GPRMC,053746.000,A,4226.8218,N,07628.8280,W,2.67,181.48,091222,,,A*7A        
$GPRMC,053751.000,A,4226.8170,N,07628.8290,W,3.48,183.71,091222,,,A*74        
$GPRMC,053757.000,A,4226.8107,N,07628.8304,W,2.84,195.15,091222,,,A*7A        
$GPRMC,053803.000,A,4226.8045,N,07628.8310,W,2.85,184.19,091222,,,A*7B        
$GPRMC,053809.000,A,4226.7983,N,07628.8328,W,3.31,206.45,091222,,,A*78        
$GPRMC,053814.000,A,4226.7958,N,07628.8369,W,3.39,236.60,091222,,,A*7B        
$GPRMC,053819.000,A,4226.7947,N,07628.8433,W,3.10,255.57,091222,,,A*7A        
$GPRMC,053825.000,A,4226.7927,N,07628.8510,W,3.81,242.52,091222,,,A*78        
$GPRMC,053831.000,A,4226.7892,N,07628.8586,W,2.75,251.02,091222,,,A*70        
$GPRMC,053836.000,A,4226.7880,N,07628.8633,W,3.41,253.12,091222,,,A*7C        
$GPRMC,053842.000,A,4226.7871,N,07628.8684,W,0.00,232.92,091222,,,A*74        
$GPRMC,053848.000,A,4226.7828,N,07628.8673,W,1.83,217.90,091222,,,A*75        
$GPRMC,053854.000,A,4226.7831,N,07628.8736,W,3.13,271.44,091222,,,A*72        
$GPRMC,053900.000,A,4226.7841,N,07628.8797,W,2.85,269.85,091222,,,A*74        
$GPRMC,053906.000,A,4226.7854,N,07628.8877,W,3.51,281.46,091222,,,A*76        
$GPRMC,053911.000,A,4226.7810,N,07628.8945,W,3.49,204.93,091222,,,A*7C        
$GPRMC,053917.000,A,4226.7736,N,07628.8996,W,3.31,192.14,091222,,,A*73        
$GPRMC,053923.000,A,4226.7663,N,07628.9050,W,2.56,178.92,091222,,,A*7D        
$GPRMC,053929.000,A,4226.7601,N,07628.9072,W,3.48,182.66,091222,,,A*73        
$GPRMC,053935.000,A,4226.7547,N,07628.9058,W,3.10,182.93,091222,,,A*70        
$GPRMC,053941.000,A,4226.7491,N,07628.9064,W,3.08,167.73,091222,,,A*7A        
$GPRMC,053947.000,A,4226.7443,N,07628.9035,W,2.49,153.51,091222,,,A*74        
$GPRMC,053953.000,A,4226.7401,N,07628.9009,W,3.06,137.98,091222,,,A*75        
$GPRMC,053959.000,A,4226.7351,N,07628.8959,W,3.65,170.95,091222,,,A*7B        
$GPRMC,054005.000,A,4226.7290,N,07628.8931,W,3.56,182.49,091222,,,A*72        
$GPRMC,054011.000,A,4226.7233,N,07628.8913,W,3.70,171.82,091222,,,A*71        
$GPRMC,054017.000,A,4226.7169,N,07628.8891,W,3.31,175.90,091222,,,A*72        
$GPRMC,054023.000,A,4226.7117,N,07628.8914,W,3.39,238.12,091222,,,A*78        
$GPRMC,054029.000,A,4226.7104,N,07628.8985,W,2.43,275.09,091222,,,A*77        
$GPRMC,054035.000,A,4226.7111,N,07628.9056,W,3.42,287.31,091222,,,A*7E        
$GPRMC,054041.000,A,4226.7120,N,07628.9131,W,3.41,261.81,091222,,,A*7F        
$GPRMC,054047.000,A,4226.7132,N,07628.9206,W,2.97,278.66,091222,,,A*76        
$GPRMC,054053.000,A,4226.7143,N,07628.9269,W,2.48,273.77,091222,,,A*75        
$GPRMC,054059.000,A,4226.7144,N,07628.9319,W,2.04,235.23,091222,,,A*75